{
  "cafes": [
    {
      "id": 1,
      "name": "업사이드커피",
      "address": "서울 성동구 연무장13길 3 1층 업사이드",
      "location": "성수",
      "category": "커피류",
      "qa": [{ "Ma": "37.541971899998885", "La": "127.04963175833169" }]
    },
    {
      "id": 2,
      "name": "BNHR",
      "address": "서울 성동구 연무장5길 9-16 1층",
      "location": "성수",
      "category": "커피류",
      "qa": [{ "Ma": "37.54436270000027", "La": "127.04842475393791" }]
    },
    {
      "id": 3,
      "name": "블루보틀",
      "address": "서울 성동구 아차산로 7 케이티링커스",
      "location": "성수",
      "category": "커피류",
      "qa": [{ "Ma": "37.54811000000059", "La": "126.97863806665484" }]
    },
    {
      "id": 4,
      "name": "로우키",
      "address": "서울 성동구 연무장3길 6 1층, B1층",
      "location": "성수",
      "category": "커피류",
      "qa": [{ "Ma": "37.54420140000036", "La": "127.04321235833255" }]
    },
    {
      "id": 5,
      "name": "도렐",
      "address": "서울 성동구 연무장7길 11 1층 도렐 성수점",
      "location": "성수",
      "category": "커피류",
      "qa": [{ "Ma": "37.54379890000113", "La": "127.05022825393749" }]
    },
    {
      "id": 6,
      "name": "브루잉 세레모니",
      "address": "서울 성동구 연무장5가길 22-1 1층",
      "location": "성수",
      "category": "커피류",
      "qa": [{ "Ma": "37.54328670000065", "La": "127.05099335394013" }]
    },
    {
      "id": 7,
      "name": "단일서울",
      "address": "서울 성동구 왕십리로 66-33 1층",
      "location": "성수",
      "category": "커피류",
      "qa": [{ "Ma": "37.54299360000071", "La": "127.0371056583301" }]
    },
    {
      "id": 8,
      "name": "파머스카페",
      "address": "서울 성동구 왕십리로6길 11 1층",
      "location": "성수",
      "category": "커피류",
      "qa": [{ "Ma": "37.54599160000131", "La": "126.9790401666571" }]
    },
    {
      "id": 9,
      "name": "카멜커피 성수",
      "address": "서울 성동구 성덕정19길 6 1층",
      "location": "성수",
      "category": "커피류",
      "qa": [{ "Ma": "37.53725639999906", "La": "127.02238243332863" }]
    },
    {
      "id": 10,
      "name": "로우커피스탠드",
      "address": "서울 성동구 왕십리로4길 28-2 1층",
      "location": "성수",
      "category": "커피류",
      "qa": [{ "Ma": "37.5471789000009", "La": "127.03827475832932" }]
    },
    {
      "id": 11,
      "name": "센터 커피",
      "address": "서울 성동구 서울숲2길 28-11",
      "location": "성수",
      "category": "커피류",
      "qa": [{ "Ma": "37.54657560000053", "La": "127.0332395583342" }]
    },
    {
      "id": 12,
      "name": "더반 베를린",
      "address": "서울 성동구 뚝섬로17길 31-22 더반 베를린 코리아 성수",
      "location": "성수",
      "category": "커피류",
      "qa": [{ "Ma": "37.54074170000009", "La": "127.05183315833048" }]
    },
    {
      "id": 13,
      "name": "포제",
      "address": "서울 성동구 연무장9길 7",
      "location": "성수",
      "category": "커피류",
      "qa": [{ "Ma": "37.542913100000774", "La": "127.047399358333" }]
    },
    {
      "id": 14,
      "name": "클라스카커피랩",
      "address": "서울 성동구 연무장15길 11 B동 303호",
      "location": "성수",
      "category": "커피류",
      "qa": [{ "Ma": "37.54282999999989", "La": "127.05480295393453" }]
    },
    {
      "id": 15,
      "name": "모멘토 브루어스",
      "address": "서울 성동구 상원6길 11-1 1층",
      "location": "성수",
      "category": "커피류",
      "qa": [{ "Ma": "37.54906900000007", "La": "127.04492635393602" }]
    },
    {
      "id": 16,
      "name": "하이라인",
      "address": "서울 성동구 성덕정9길 10 2층 오른쪽문",
      "location": "성수",
      "category": "커피류",
      "qa": [{ "Ma": "37.539021900000705", "La": "127.04150565833467" }]
    },
    {
      "id": 17,
      "name": "성수동대림창고갤러리",
      "address": "서울 성동구 성수이로 78",
      "location": "성수",
      "category": "커피류",
      "qa": [{ "Ma": "37.541735999999815", "La": "126.98922656665874" }]
    },
    {
      "id": 18,
      "name": "건대커피 랩",
      "address": "서울 광진구 동일로22길 102 2층",
      "location": "건대",
      "category": "커피류",
      "qa": [{ "Ma": "37.540829199999706", "La": "127.0528978166653" }]
    },
    {
      "id": 19,
      "name": "모츠커피",
      "address": "서울 광진구 군자로3길 14 1층",
      "location": "건대",
      "category": "커피류",
      "qa": [{ "Ma": "37.54462909999995", "La": "127.06631695393725" }]
    },
    {
      "id": 20,
      "name": "테이큰",
      "address": "서울 광진구 능동로16길 51",
      "location": "건대",
      "category": "커피류",
      "qa": [{ "Ma": "37.54529580000088", "La": "127.06748195832846" }]
    },
    {
      "id": 21,
      "name": "비엔나227",
      "address": "서울 광진구 능동로 92 2층 203호",
      "location": "건대",
      "category": "커피류",
      "qa": [{ "Ma": "37.53897709999991", "La": "127.06761625393558" }]
    },
    {
      "id": 22,
      "name": "보리스",
      "address": "서울 광진구 아차산로 290 1층",
      "location": "건대",
      "category": "커피류",
      "qa": [{ "Ma": "37.53834429999918", "La": "127.07089315393574" }]
    },
    {
      "id": 23,
      "name": "칼레오커피로스터스",
      "address": "서울 광진구 아차산로 291 1층",
      "location": "건대",
      "category": "커피류",
      "qa": [{ "Ma": "37.53875770000027", "La": "127.07120145393563" }]
    },
    {
      "id": 24,
      "name": "카페호이",
      "address": "서울 광진구 동일로20길 80",
      "location": "건대",
      "category": "커피류",
      "qa": [{ "Ma": "37.54015080000044", "La": "127.05111921666372" }]
    },
    {
      "id": 25,
      "name": "최가커피회관",
      "address": "서울 광진구 능동로13길 30",
      "location": "건대",
      "category": "커피류",
      "qa": [{ "Ma": "37.54015080000044", "La": "127.05111921666372" }]
    },
    {
      "id": 26,
      "name": "엠케이갤러리스튜디오",
      "address": "서울 광진구 군자로 41 2층",
      "location": "건대",
      "category": "커피류",
      "qa": [{ "Ma": "37.546938799998564", "La": "127.03660523332903" }]
    },
    {
      "id": 27,
      "name": "투또통토",
      "address": "서울 광진구 능동로 125 1층",
      "location": "건대",
      "category": "커피류",
      "qa": [{ "Ma": "37.54212900000029", "La": "127.06724915393801" }]
    },
    {
      "id": 28,
      "name": "흐릇",
      "address": "서울 광진구 군자로 19 1층",
      "location": "건대",
      "category": "커피류",
      "qa": [{ "Ma": "37.54503170000061", "La": "127.06689255393816" }]
    },
    {
      "id": 29,
      "name": "아르므아",
      "address": "서울 광진구 동일로22길 117-27",
      "location": "건대",
      "category": "커피류",
      "qa": [{ "Ma": "37.541768900001045", "La": "127.0667536539343" }]
    },
    {
      "id": 30,
      "name": "플레어 에스프레소 바",
      "address": "서울 광진구 아차산로32길 21 여유재 1층",
      "location": "건대",
      "category": "커피류",
      "qa": [{ "Ma": "37.538975399999075", "La": "127.03474533332839" }]
    },
    {
      "id": 31,
      "name": "레스또 커피",
      "address": "서울 광진구 군자로6길 50-5 1층",
      "location": "건대",
      "category": "커피류",
      "qa": [{ "Ma": "37.545709199999315", "La": "127.0678760539373" }]
    },
    {
      "id": 32,
      "name": "랭보",
      "address": "서울 광진구 동일로18길 96 2층",
      "location": "건대",
      "category": "커피류",
      "qa": [{ "Ma": "37.53836110000052", "La": "127.06374795393859" }]
    },
    {
      "id": 33,
      "name": "꼬메노",
      "address": "서울 광진구 군자로7길 29 1층",
      "location": "건대",
      "category": "커피류",
      "qa": [{ "Ma": "37.5456057000009", "La": "127.06491945393263" }]
    },
    {
      "id": 34,
      "name": "지속",
      "address": "서울 광진구 동일로20길 20 1층",
      "location": "건대",
      "category": "커피류",
      "qa": [{ "Ma": "37.54111879999991", "La": "127.04803801666581" }]
    },
    {
      "id": 35,
      "name": "웰하우스",
      "address": "서울 송파구 오금로16길 10 2층",
      "location": "잠실",
      "category": "커피류",
      "qa": [{ "Ma": "37.51081230000066", "La": "127.10456765393917" }]
    },
    {
      "id": 36,
      "name": "리프커피바",
      "address": "서울 송파구 백제고분로43길 24 1층 리프커피바",
      "location": "잠실",
      "category": "커피류",
      "qa": [{ "Ma": "37.50921620000044", "La": "127.10411545393143" }]
    },
    {
      "id": 37,
      "name": "뷰클런즈",
      "address": "서울 송파구 백제고분로43길 10 1층",
      "location": "잠실",
      "category": "커피류",
      "qa": [{ "Ma": "37.50834510000007", "La": "127.10542015393469" }]
    },
    {
      "id": 38,
      "name": "선호커피",
      "address": "서울 송파구 송이로2길 4 1층 선호커피",
      "location": "잠실",
      "category": "커피류",
      "qa": [{ "Ma": "37.504041900001255", "La": "127.10619675833057" }]
    },
    {
      "id": 39,
      "name": "컨플릭트스토어",
      "address": "서울 송파구 잠실로 209 케이티송파빌딩 101호 컨플릭트스토어",
      "location": "잠실",
      "category": "커피류",
      "qa": [{ "Ma": "37.51361779999979", "La": "127.10230085393765" }]
    },
    {
      "id": 40,
      "name": "카페2.7",
      "address": "서울 송파구 백제고분로36가길 15 201-1호",
      "location": "잠실",
      "category": "커피류",
      "qa": [{ "Ma": "37.50447349999904", "La": "127.0975030539343" }]
    },
    {
      "id": 41,
      "name": "카페콤피",
      "address": "서울 송파구 올림픽로35가길 9 카페콤피",
      "location": "잠실",
      "category": "커피류",
      "qa": [{ "Ma": "37.517406599999035", "La": "127.09947375393246" }]
    },
    {
      "id": 42,
      "name": "이월로스터스",
      "address": "서울 송파구 백제고분로45길 14",
      "location": "잠실",
      "category": "커피류",
      "qa": [{ "Ma": "37.509675900001426", "La": "127.10578355393777" }]
    },
    {
      "id": 43,
      "name": "커피바이로스터스",
      "address": "서울 송파구 백제고분로17길 56 2층",
      "location": "잠실",
      "category": "커피류",
      "qa": [{ "Ma": "37.510532099999836", "La": "127.0810929539403" }]
    },
    {
      "id": 44,
      "name": "올티드커피",
      "address": "서울 송파구 양재대로66길 43 1층",
      "location": "잠실",
      "category": "커피류",
      "qa": [{ "Ma": "37.49991650000068", "La": "127.12140005393444" }]
    },
    {
      "id": 45,
      "name": "어니커피",
      "address": "서울 송파구 송파대로48길 5-1 1층",
      "location": "잠실",
      "category": "커피류",
      "qa": [{ "Ma": "37.508647100001", "La": "127.1009563539338" }]
    },
    {
      "id": 46,
      "name": "산양로스터스",
      "address": "서울 송파구 오금로18길 3 1층",
      "location": "잠실",
      "category": "커피류",
      "qa": [{ "Ma": "37.51040220000018", "La": "127.10678735393724" }]
    },
    {
      "id": 47,
      "name": "커피몽타주",
      "address": "서울 강동구 올림픽로48길 23-12 1층",
      "location": "잠실",
      "category": "커피류",
      "qa": [{ "Ma": "37.52950510000045", "La": "127.11769235393636" }]
    },
    {
      "id": 48,
      "name": "호이안로스터리",
      "address": "서울 송파구 백제고분로45길 3-18",
      "location": "잠실",
      "category": "커피류",
      "qa": [{ "Ma": "37.508569499999425", "La": "127.04326396666151" }]
    },
    {
      "id": 49,
      "name": "푸가 커피 로스터스",
      "address": "서울 송파구 백제고분로42길 34 1층",
      "location": "잠실",
      "category": "커피류",
      "qa": [{ "Ma": "37.50306956091441", "La": "127.087897218835" }]
    },
    {
      "id": 50,
      "name": "스톤앤워터",
      "address": "서울 송파구 가락로 283 1층 스톤앤워터",
      "location": "잠실",
      "category": "커피류",
      "qa": [{ "Ma": "37.51314509999897", "La": "127.07814075934473" }]
    },
    {
      "id": 51,
      "name": "옹근달",
      "address": "서울 성동구 성수이로7길 41-1",
      "location": "성수",
      "category": "디저트",
      "qa": [{ "Ma": "37.542719499999315", "La": "127.04881475393782" }]
    },
    {
      "id": 52,
      "name": "차일디쉬",
      "address": "서울 성동구 연무장길 114 2층 차일디쉬",
      "location": "성수",
      "category": "디저트",
      "qa": [{ "Ma": "37.54045680000075", "La": "127.05738755393716" }]
    },
    {
      "id": 53,
      "name": "러프러프",
      "address": "서울 성동구 연무장길 81 401호",
      "location": "성수",
      "category": "디저트",
      "qa": [{ "Ma": "37.541701199999935", "La": "127.0540732539366" }]
    },
    {
      "id": 54,
      "name": "로와이드",
      "address": "서울 성동구 서울숲2길 22-1",
      "location": "성수",
      "category": "디저트",
      "qa": [{ "Ma": "37.54691559999823", "La": "127.03273495833108" }]
    },
    {
      "id": 55,
      "name": "오우드 성수1호점",
      "address": "서울 성동구 연무장길 101-1",
      "location": "성수",
      "category": "디저트",
      "qa": [{ "Ma": "37.541121199999964", "La": "127.05211825833027" }]
    },
    {
      "id": 56,
      "name": "감도",
      "address": "서울 성동구 왕십리로 83-21 디타워 서울포레스트 지하1층 B115 감도",
      "location": "성수",
      "category": "디저트",
      "qa": [{ "Ma": "37.544379100000654", "La": "127.03592485833217" }]
    },
    {
      "id": 57,
      "name": "레인리포트 크루아상",
      "address": "서울 성동구 성수이로16길 32 주3 1, 2층",
      "location": "성수",
      "category": "디저트",
      "qa": [{ "Ma": "37.540081300000786", "La": "127.05552355393573" }]
    },
    {
      "id": 58,
      "name": "테니",
      "address": "서울 성동구 뚝섬로17가길 55 1층",
      "location": "성수",
      "category": "디저트",
      "qa": [{ "Ma": "37.54109549999929", "La": "127.05500765394022" }]
    },
    {
      "id": 59,
      "name": "테디스오븐",
      "address": "서울 성동구 서울숲2길 43 (성수동1 가) 1층",
      "location": "성수",
      "category": "디저트",
      "qa": [{ "Ma": "37.54650479999819", "La": "127.0392827539373" }]
    },
    {
      "id": 60,
      "name": "발렁스",
      "address": "서울 성동구 성수일로4길 49 1층 발렁스",
      "location": "성수",
      "category": "디저트",
      "qa": [{ "Ma": "37.54253959999975", "La": "127.03725161666397" }]
    },
    {
      "id": 61,
      "name": "글로우",
      "address": "서울 성동구 아차산로9길 20 1층",
      "location": "성수",
      "category": "디저트",
      "qa": [{ "Ma": "37.54602590000112", "La": "127.05030175833409" }]
    },
    {
      "id": 62,
      "name": "베통",
      "address": "서울 성동구 연무장7가길 8 베통 성수",
      "location": "성수",
      "category": "디저트",
      "qa": [{ "Ma": "37.542935600000575", "La": "127.05103715393658" }]
    },
    {
      "id": 63,
      "name": "마를리",
      "address": "서울 성동구 연무장길 47 홍원빌딩",
      "location": "성수",
      "category": "디저트",
      "qa": [{ "Ma": "37.54285320000033", "La": "127.05061485393804" }]
    },
    {
      "id": 64,
      "name": "어라운드데이",
      "address": "서울 성동구 서울숲2길 24-1 어라운드데이",
      "location": "성수",
      "category": "디저트",
      "qa": [{ "Ma": "37.54687240000048", "La": "127.03708345393643" }]
    },
    {
      "id": 65,
      "name": "어니언",
      "address": "서울 성동구 아차산로9길 8 어니언",
      "location": "성수",
      "category": "디저트",
      "qa": [{ "Ma": "37.54469090000148", "La": "127.0497280583275" }]
    },
    {
      "id": 66,
      "name": "라프레플루트",
      "address": "서울 성동구 서울숲2길 8-8 2층",
      "location": "성수",
      "category": "디저트",
      "qa": [{ "Ma": "37.54725250000101", "La": "127.0352591539333" }]
    },
    {
      "id": 67,
      "name": "슈드",
      "address": "서울 광진구 아차산로31길 6 슈드서울",
      "location": "건대",
      "category": "디저트",
      "qa": [{ "Ma": "37.54124850000072", "La": "127.065228953938" }]
    },
    {
      "id": 68,
      "name": "환원당",
      "address": "서울 광진구 능동로 166",
      "location": "건대",
      "category": "디저트",
      "qa": [{ "Ma": "37.54529170000061", "La": "127.06932865393705" }]
    },
    {
      "id": 69,
      "name": "안다미로 팬케이크",
      "address": "서울 광진구 아차산로25길 8 2층 안다미로 팬케이크",
      "location": "건대",
      "category": "디저트",
      "qa": [{ "Ma": "37.541808500000066", "La": "127.06257885393667" }]
    },
    {
      "id": 70,
      "name": "카페 그자체 베이커리",
      "address": "서울 광진구 능동로13길 65 2층",
      "location": "건대",
      "category": "디저트",
      "qa": [{ "Ma": "37.54456459999963", "La": "127.06506565393302" }]
    },
    {
      "id": 71,
      "name": "밀피",
      "address": "서울 광진구 동일로22길 117-15",
      "location": "건대",
      "category": "디저트",
      "qa": [{ "Ma": "37.54135080000048", "La": "127.06655755393648" }]
    },
    {
      "id": 72,
      "name": "트웰브미닛",
      "address": "서울 광진구 아차산로33길 68 트웰브미닛",
      "location": "건대",
      "category": "디저트",
      "qa": [{ "Ma": "37.54314440000086", "La": "127.06709665393304" }]
    },
    {
      "id": 73,
      "name": "애드엔드",
      "address": "서울 광진구 광나루로26길 28 1층",
      "location": "건대",
      "category": "디저트",
      "qa": [{ "Ma": "37.54529960000028", "La": "127.07325345393735" }]
    },
    {
      "id": 74,
      "name": "열매제과점",
      "address": "서울 광진구 동일로24길 31",
      "location": "건대",
      "category": "디저트",
      "qa": [{ "Ma": "37.54364020000058", "La": "127.0627842539375" }]
    },
    {
      "id": 75,
      "name": "레브",
      "address": "서울 광진구 능동로15길 11 1층",
      "location": "건대",
      "category": "디저트",
      "qa": [{ "Ma": "37.545076999998926", "La": "127.0637957583326" }]
    },
    {
      "id": 76,
      "name": "아티제",
      "address": "서울 광진구 능동로 120-1 건국대학교병원 1층",
      "location": "건대",
      "category": "디저트",
      "qa": [{ "Ma": "37.54037639999975", "La": "37.54037639999975" }]
    },
    {
      "id": 77,
      "name": "더이퀼브리엄커피",
      "address": "서울 광진구 아차산로30길 7 3층 더이퀼리브리엄커피",
      "location": "건대",
      "category": "디저트",
      "qa": [{ "Ma": "37.54030129999798", "La": "127.051084305621" }]
    },
    {
      "id": 78,
      "name": "카페롱",
      "address": "서울 광진구 광나루로 360 1층",
      "location": "건대",
      "category": "디저트",
      "qa": [{ "Ma": "37.54788900000005", "La": "127.05327531666104" }]
    },
    {
      "id": 79,
      "name": "카푸베어",
      "address": "서울 광진구 능동로 143 B1층",
      "location": "건대",
      "category": "디저트",
      "qa": [{ "Ma": "37.543631999998624", "La": "127.05538551667027" }]
    },
    {
      "id": 80,
      "name": "냥토피아 커페앤샵",
      "address": "서울 광진구 능동로 147-1 3층 냥토피아 카페앤샵",
      "location": "건대",
      "category": "디저트",
      "qa": [{ "Ma": "37.544045299999006", "La": "127.05548141666608" }]
    },
    {
      "id": 81,
      "name": "언필드",
      "address": "서울 광진구 동일로22길 30 2층",
      "location": "건대",
      "category": "디저트",
      "qa": [{ "Ma": "37.542055800000306", "La": "127.0491892166622" }]
    },
    {
      "id": 82,
      "name": "골든라이언",
      "address": "서울 광진구 능동로13길 74",
      "location": "건대",
      "category": "디저트",
      "qa": [{ "Ma": "37.54493824053404", "La": "127.05237460697862" }]
    },
    {
      "id": 83,
      "name": "그리네",
      "address": "서울 광진구 능동로22길 117-7 1~2층",
      "location": "건대",
      "category": "디저트",
      "qa": [{ "Ma": "37.541000799998855", "La": "127.05383770362988" }]
    },
    {
      "id": 84,
      "name": "디저티스트",
      "address": "서울 송파구 송파대로48길 37 호수임광아파트 상가동 2층",
      "location": "잠실",
      "category": "디저트",
      "qa": [{ "Ma": "37.5106818999992", "La": "127.10342025393771" }]
    },
    {
      "id": 85,
      "name": "진저베어",
      "address": "서울 송파구 백제고분로41길 43-7 1층",
      "location": "잠실",
      "category": "디저트",
      "qa": [{ "Ma": "37.50913839999951", "La": "127.10118395393647" }]
    },
    {
      "id": 86,
      "name": "카페 페퍼",
      "address": "서울 송파구 백제고분로45길 12",
      "location": "잠실",
      "category": "디저트",
      "qa": [{ "Ma": "37.50963429999911", "La": "127.10178925833122" }]
    },
    {
      "id": 87,
      "name": "얼터너티브",
      "address": "서울 송파구 백제고분로46길 26-1 신화빌딩 1층",
      "location": "잠실",
      "category": "디저트",
      "qa": [{ "Ma": "37.50749679999867", "La": "127.1096726539374" }]
    },
    {
      "id": 88,
      "name": "팻어케이크",
      "address": "서울 송파구 백제고분로45길 9 2층",
      "location": "잠실",
      "category": "디저트",
      "qa": [{ "Ma": "37.50934990000023", "La": "127.10608645393543" }]
    },
    {
      "id": 89,
      "name": "엔티크커피",
      "address": "서울 송파구 백제고분로41길 21-16 1층 앤티크커피 잠실점",
      "location": "잠실",
      "category": "디저트",
      "qa": [{ "Ma": "37.50760900000091", "La": "127.10215125393698" }]
    },
    {
      "id": 90,
      "name": "이슬재",
      "address": "서울 송파구 백제고분로41길 19-24 1층",
      "location": "잠실",
      "category": "디저트",
      "qa": [{ "Ma": "37.50711130000075", "La": "127.1022981539352" }]
    },
    {
      "id": 91,
      "name": "미스틱래빗",
      "address": "서울 송파구 백제고분로 426 1층 107호, 108호, 109호",
      "location": "잠실",
      "category": "디저트",
      "qa": [{ "Ma": "37.50888229999972", "La": "127.10743625393569" }]
    },
    {
      "id": 92,
      "name": "모어댄버터",
      "address": "서울 송파구 송파대로 467 1층 모어댄버터",
      "location": "잠실",
      "category": "디저트",
      "qa": [{ "Ma": "37.50779519999954", "La": "127.10026565393733" }]
    },
    {
      "id": 93,
      "name": "젠젠",
      "address": "서울 송파구 백제고분로45길 34 동방빌딩 2F",
      "location": "잠실",
      "category": "디저트",
      "qa": [{ "Ma": "37.51069999999926", "La": "127.10385305393847" }]
    },
    {
      "id": 94,
      "name": "슈야",
      "address": "서울 송파구 백제고분로45길 23 1층",
      "location": "잠실",
      "category": "디저트",
      "qa": [{ "Ma": "37.51006090000154", "La": "127.10466935393634" }]
    },
    {
      "id": 95,
      "name": "니커버커베이글",
      "address": "서울 송파구 석촌호수로 268 1층 109~112호",
      "location": "잠실",
      "category": "디저트",
      "qa": [{ "Ma": "37.50985640000115", "La": "127.10151375393679" }]
    },
    {
      "id": 96,
      "name": "우무드",
      "address": "서울 송파구 오금로 126 1층 113호 우무드",
      "location": "잠실",
      "category": "디저트",
      "qa": [{ "Ma": "37.511255400001055", "La": "127.10471725393717" }]
    },
    {
      "id": 97,
      "name": "오린지",
      "address": "서울 송파구 송파대로48길 19 1층",
      "location": "잠실",
      "category": "디저트",
      "qa": [{ "Ma": "37.543631999998624", "La": "127.10220045393656" }]
    },
    {
      "id": 98,
      "name": "트레스드",
      "address": "서울 송파구 백제고분로15길 50 1층",
      "location": "잠실",
      "category": "디저트",
      "qa": [{ "Ma": "37.5097742000005", "La": "127.08056155393946" }]
    },
    {
      "id": 99,
      "name": "끄네들로",
      "address": "서울 송파구 오금로 95 국제빌딩 끄네들로",
      "location": "잠실",
      "category": "디저트",
      "qa": [{ "Ma": "37.51376480000079", "La": "127.10354065393689" }]
    },
    {
      "id": 100,
      "name": "버터마켓",
      "address": "서울 송파구 오금로16길 12 1층",
      "location": "잠실",
      "category": "디저트",
      "qa": [{ "Ma": "37.510560000000076", "La": "127.1044508539376" }]
    }
  ]
}
